[
  {"id": 1, "name": "부산", "lat": 35.326314260, "lon": 129.003933451, "address": "경상남도 양산시 물금읍 부산대학로 49"},
  {"id": 2, "name": "가천", "lat": 37.451356218, "lon": 127.128474298, "address": "경기도 성남시 수정구 성남대로 1342"},
  {"id": 3, "name": "경희", "lat": 37.59203574910073, "lon": 127.055451811073, "address": "서울특별시 동대문구 회기동 1-1"},
  {"id": 4, "name": "대구한", "lat": 35.873357961, "lon": 128.743372415, "address": "대구 동구 혁신대로 430"},
  {"id": 5, "name": "대전", "lat": 36.333762718, "lon": 127.461165785, "address": "대전 동구 대학로 62"},
  {"id": 6, "name": "동국", "lat": 37.679350953, "lon": 126.807080048, "address": "경기 고양시 일산동구 동국로 32"},
  {"id": 7, "name": "동신", "lat": 35.045481061, "lon": 126.713182819, "address": "전남 나주시 동신대길 120-9"},
  {"id": 8, "name": "동의", "lat": 35.169047408, "lon": 129.076736588, "address": "부산 부산진구 양정로 52-57"},
  {"id": 9, "name": "상지", "lat": 37.371036542, "lon": 127.925835858, "address": "강원특별자치도 원주시 상지대길 83"},
  {"id":10, "name": "세명", "lat": 37.182708889, "lon": 128.193722636, "address": "충청북도 제천시 세명로 65"},
  {"id":11, "name": "우석", "lat": 35.816837000, "lon": 127.127708133, "address": "전북특별자치도 전주시 완산구 선너머3길 61"},
  {"id":12, "name": "원광", "lat": 35.968923171, "lon": 126.960788437, "address": "전북특별자치도 익산시 익산대로 460"}
]
