[
  {
    "id": 101,
    "name": "부산대학교",
    "lat": 35.326314260,
    "lon": 129.003933451,
    "address": "경상남도 양산시 물금읍 부산대학로 49"
  },
  {
    "id": 102,
    "name": "가천대학교",
    "lat": 37.451356218,
    "lon": 127.128474298,
    "address": "경기도 성남시 수정구 성남대로 1342"
  },
  {
    "id": 103,
    "name": "경희대학교",
    "lat": 37.59203574910073,
    "lon": 127.055451811073,
    "address": "서울특별시 동대문구 회기동 1-1"
  },
  {
    "id": 104,
    "name": "대구한의대학교",
    "lat": 35.873357961,
    "lon": 128.743372415,
    "address": "대구 동구 혁신대로 430"
  },
  {
    "id": 105,
    "name": "대전대학교",
    "lat": 36.333762718,
    "lon": 127.461165785,
    "address": "대전 동구 대학로 62"
  },
  {
    "id": 106,
    "name": "동국대학교",
    "lat": 37.679350953,
    "lon": 126.807080048,
    "address": "경기 고양시 일산동구 동국로 32"
  },
  {
    "id": 107,
    "name": "동신대학교",
    "lat": 35.045481061,
    "lon": 126.713182819,
    "address": "전남 나주시 동신대길 120-9"
  },
  {
    "id": 108,
    "name": "동의대학교",
    "lat": 35.169047408,
    "lon": 129.076736588,
    "address": "부산 부산진구 양정로 52-57"
  },
  {
    "id": 109,
    "name": "상지대학교",
    "lat": 37.371036542,
    "lon": 127.925835858,
    "address": "강원특별자치도 원주시 상지대길 83"
  },
  {
    "id": 110,
    "name": "세명대학교",
    "lat": 37.182708889,
    "lon": 128.193722636,
    "address": "충청북도 제천시 세명로 65"
  },
  {
    "id": 111,
    "name": "우석대학교",
    "lat": 35.816837,
    "lon": 127.127708133,
    "address": "전북특별자치도 전주시 완산구 선너머3길 61"
  },
  {
    "id": 112,
    "name": "원광대학교",
    "lat": 35.968923171,
    "lon": 126.960788437,
    "address": "전북특별자치도 익산시 익산대로 460"
  }
]
